,City,Cloudiness,Country,Date,Humidity,Lat,Lng,Max Temp,Wind Speed
0,Hermanus,2,ZA,1583046676,77,-34.42,19.23,297.04,4.92
1,Codrington,100,AU,1583046800,82,-38.27,141.97,290.18,10.17
2,Morón,0,AR,1583046771,83,-34.65,-58.62,299.15,2.6
3,Klichka,76,RU,1583046771,86,50.45,118.0,263.56,2.34
4,George Town,20,MY,1583046771,59,5.41,100.34,306.15,4.1
5,Bluff,60,NZ,1583046772,58,-46.6,168.33,292.59,1.34
6,Hobart,75,AU,1583046772,46,-42.88,147.33,295.15,3.6
7,Tromsø,20,NO,1583046772,78,69.65,18.96,264.15,4.6
8,Cabo San Lucas,5,MX,1583046772,55,22.89,-109.91,291.48,2.6
9,Vaini,20,TO,1583046772,78,-21.2,-175.2,301.15,3.6
10,Butaritari,96,KI,1583046773,81,3.07,172.79,301.47,10.21
11,Aksarka,100,RU,1583046773,95,66.56,67.8,272.09,11.29
12,Benguela,44,AO,1583046773,74,-12.58,13.41,299.15,2.6
13,Rikitea,100,PF,1583046773,80,-23.12,-134.97,299.88,6.54
14,Champerico,0,GT,1583046773,74,14.3,-91.92,296.78,1.75
15,Busselton,47,AU,1583046774,27,-33.65,115.33,299.82,8.61
16,Hasaki,75,JP,1583046774,54,35.73,140.83,292.04,4.6
17,Hilo,75,US,1583046774,82,19.73,-155.09,292.15,3.1
18,Saint George,1,US,1583046775,49,37.1,-113.58,283.15,2.79
19,Sabang,4,ID,1583046775,75,5.89,95.32,301.49,7.54
20,Timbiras,100,BR,1583046775,98,-4.26,-43.94,296.12,0.84
21,Te Anau,17,NZ,1583046645,68,-45.42,167.72,290.71,2.74
22,Bengkulu,99,ID,1583046775,56,-3.8,102.27,305.33,2.43
23,Hambantota,40,LK,1583046776,66,6.12,81.12,305.15,5.1
24,Yancheng,96,CN,1583046777,77,33.39,120.13,283.31,4.05
25,Port Lincoln,100,AU,1583046777,82,-34.73,135.87,291.89,7.65
26,Albany,40,US,1583046623,66,42.6,-73.97,266.48,2.6
27,Mount Gambier,90,AU,1583046777,68,-37.83,140.77,293.15,6.2
28,Lompoc,75,US,1583046778,71,34.64,-120.46,284.15,6.7
29,Avarua,0,CK,1583046778,88,-21.21,-159.78,299.15,2.1
30,Lodwar,0,KE,1583046778,36,3.12,35.6,306.27,4.83
31,Kathu,20,TH,1583046511,41,7.92,98.33,306.15,4.6
32,Punta Arenas,40,CL,1583046779,82,-53.15,-70.92,286.15,7.2
33,Vostok,100,RU,1583046779,88,46.49,135.88,269.1,1.9
34,Nikolskoye,100,RU,1583046779,92,59.7,30.79,272.04,3.0
35,Kaitangata,41,NZ,1583046779,77,-46.28,169.85,288.71,6.5
36,New Norfolk,75,AU,1583046780,46,-42.78,147.06,295.15,3.6
37,Saint-François,75,FR,1583046780,70,46.42,3.91,280.93,3.1
38,Järvenpää,90,FI,1583046780,97,60.47,25.09,273.71,4.1
39,Hong Kong,20,HK,1583046709,57,22.29,114.16,302.04,3.1
40,Nannilam,11,IN,1583046781,42,10.88,79.61,304.95,4.1
41,Pisco,20,PE,1583046781,94,-13.7,-76.22,295.15,4.6
42,Raudeberg,75,NO,1583046782,60,61.99,5.14,277.15,9.3
43,Kahului,75,US,1583046496,77,20.89,-156.47,292.15,10.83
44,Klaksvík,100,FO,1583046783,80,62.23,-6.59,277.15,11.8
45,Port Elizabeth,0,ZA,1583046783,68,-33.92,25.57,294.15,3.6
46,Maloma,75,PH,1583046783,62,15.11,120.06,306.15,4.1
47,Ushuaia,40,AR,1583046783,87,-54.8,-68.3,284.15,4.1
48,Castro,45,BR,1583046658,96,-24.79,-50.01,286.24,2.35
49,Port Alfred,0,ZA,1583046785,77,-33.59,26.89,294.82,2.24
50,Paraná,0,AR,1583046786,85,-31.73,-60.52,297.04,1.78
51,Chokurdakh,0,RU,1583046786,85,70.63,147.92,253.01,2.53
52,Mar del Plata,75,AR,1583046787,100,-38.0,-57.56,293.15,1.5
53,Cape Town,0,ZA,1583046362,72,-33.93,18.42,297.04,2.1
54,Puerto Escondido,0,MX,1583046787,80,15.85,-97.07,293.4,1.43
55,Tezu,29,IN,1583046787,26,27.92,96.17,300.17,1.98
56,Yangi Marg`ilon,32,UZ,1583046788,62,40.43,71.72,285.15,1.06
57,Saugor,79,IN,1583046788,36,23.83,78.72,296.77,3.44
58,Auki,52,SB,1583046788,63,-8.77,160.7,303.62,0.94
59,Philadelphia,75,US,1583046656,46,39.95,-75.16,272.59,3.1
60,Donskoye,75,RU,1583046789,94,45.46,41.97,273.15,4.0
61,Carnarvon,12,AU,1583046789,52,-24.87,113.63,304.15,7.2
62,Selty,98,RU,1583046789,92,57.31,52.13,268.87,4.87
63,Saldanha,0,ZA,1583046789,49,-33.01,17.94,296.15,3.6
64,Lavrentiya,0,RU,1583046790,89,65.58,-171.0,251.45,3.63
65,Mogadishu,75,SO,1583046772,62,2.04,45.34,302.15,6.2
66,Puerto Ayora,11,EC,1583046739,100,-0.74,-90.35,299.82,3.13
67,Ascension,1,US,1583046790,93,30.22,-90.9,285.15,2.75
68,Ribeira Grande,87,PT,1583046791,86,38.52,-28.7,287.88,10.1
69,Ponta Delgada,75,PT,1583046791,82,37.73,-25.67,290.15,9.3
70,Kastamonu Province,75,TR,1583046791,75,41.5,33.67,273.15,1.0
71,Barrow,1,US,1583046791,82,71.29,-156.79,245.15,2.1
72,Saint-Augustin,8,CA,1583046791,91,51.23,-58.65,262.27,2.96
73,Lebu,0,CL,1583046792,94,-37.62,-73.65,283.34,0.43
74,Tura,0,IN,1583046792,24,25.52,90.22,306.46,0.55
75,Huarmey,100,PE,1583046792,80,-10.07,-78.15,295.55,1.22
76,Mataura,52,NZ,1583046792,58,-46.19,168.86,292.59,1.34
77,Ozark,1,US,1583046793,61,37.02,-93.21,284.26,7.2
78,Esperance,90,AU,1583046663,63,-33.87,121.9,292.15,10.8
79,Aasiaat,100,GL,1583046793,98,68.71,-52.87,246.58,1.81
80,Bredasdorp,35,ZA,1583046793,82,-34.53,20.04,293.15,4.1
81,Empório,49,GR,1583046794,58,40.48,21.55,272.15,1.5
82,Takhtamygda,100,RU,1583046794,85,54.1,123.57,265.73,0.53
83,Pevek,100,RU,1583046819,99,69.7,170.31,252.76,2.43
84,Saint Paul Harbor,1,US,1583046556,92,57.79,-152.41,272.15,3.1
85,Coahuayana Viejo,0,MX,1583046819,61,18.73,-103.68,295.29,1.98
86,Basco,49,PH,1583046819,82,20.45,121.97,298.7,7.26
87,Rantauprapat,96,ID,1583046819,54,2.1,99.83,305.57,1.23
88,Alofi,1,NU,1583046820,83,-19.06,-169.92,300.15,2.6
89,Sobolevo,94,RU,1583046820,71,54.43,31.9,273.77,7.95
90,Husavik,40,IS,1583046820,79,66.04,-17.34,273.15,3.1
91,Kapaa,75,US,1583046820,73,22.08,-159.32,296.15,11.8
92,Muzhi,98,RU,1583046821,82,65.37,64.67,270.92,9.06
93,Tuktoyaktuk,20,CA,1583046821,73,69.45,-133.04,239.15,2.6
94,Mikhaylovskoye,91,RU,1583046821,83,51.82,79.72,271.49,4.39
95,Tessalit,0,ML,1583046821,10,20.2,1.01,292.41,5.04
96,Hithadhoo,33,MV,1583046822,77,-0.6,73.08,301.32,5.66
97,Pasca,20,CO,1583046822,93,4.31,-74.3,283.15,1.5
98,Guerrero Negro,97,MX,1583046822,64,27.98,-114.06,289.32,4.6
99,Mapastepec,0,MX,1583046822,56,15.43,-92.9,295.18,2.75
100,Russell,1,US,1583046822,74,32.35,-85.2,279.15,0.23
101,Nome,1,US,1583046823,51,64.5,-165.41,261.15,7.7
102,Concord,75,US,1583046697,66,37.98,-122.03,284.26,9.8
103,Boa Vista,72,BR,1583046823,65,2.82,-60.67,300.15,5.7
104,Narsaq,0,GL,1583046824,40,60.92,-46.05,255.15,2.1
105,Cap Malheureux,75,MU,1583046824,83,-19.98,57.61,302.15,3.6
106,Acarí,100,PE,1583046824,84,-15.43,-74.62,292.94,1.36
107,Wangqing,100,CN,1583046824,79,43.32,129.76,269.63,2.12
108,Kirkland Lake,1,CA,1583046825,75,48.14,-80.04,248.15,1.48
109,Misasi,75,TZ,1583046825,94,-3.0,33.08,296.15,2.6
110,Chapais,75,CA,1583046825,91,49.78,-74.85,255.15,1.0
111,Zhob,0,PK,1583046825,51,31.34,69.45,286.56,2.98
112,Walvis Bay,90,NA,1583046826,77,-22.96,14.51,294.15,1.5
113,Caravelas,38,BR,1583046826,78,-17.71,-39.25,300.09,2.01
114,Lata,75,PT,1583046826,93,40.16,-8.33,288.15,5.7
115,Port Antonio,20,JM,1583046826,78,18.18,-76.46,298.15,3.1
116,Rio Grande,0,BR,1583046827,93,-32.03,-52.1,289.82,3.92
117,Bosaso,0,SO,1583046827,78,11.28,49.18,299.15,3.71
118,Qandala,22,SO,1583046827,40,11.47,49.87,300.25,1.35
119,Sinnamary,27,GF,1583046827,83,5.38,-52.95,298.84,6.79
120,Province of Mantua,90,IT,1583046828,100,45.17,10.78,280.37,2.6
121,Adré,0,TD,1583046828,14,13.47,22.2,293.94,9.48
122,Ziarat,0,PK,1583046828,42,30.38,67.73,281.39,2.28
123,Kutum,0,SD,1583046828,17,14.2,24.67,290.63,3.9
124,Poum,78,NC,1583046828,82,-20.23,164.02,301.61,6.19
125,Marrakesh,62,MA,1583046773,87,31.63,-8.01,284.15,3.1
126,Isoka,100,ZM,1583046829,97,-10.16,32.63,290.57,1.71
127,Erzin,20,TR,1583046829,93,36.96,36.2,286.48,2.1
128,Atar,0,MR,1583046830,14,20.52,-13.05,292.09,3.8
129,Puyang,100,CN,1583046830,95,29.46,119.89,287.04,2.11
130,Kashgar,12,CN,1583046830,25,39.45,75.98,283.15,3.0
131,Provideniya,0,RU,1583046830,86,64.38,-173.3,253.02,6.26
132,Lagoa,98,PT,1583046831,82,39.05,-27.98,289.72,12.6
133,Khovd,0,MN,1583046831,30,48.01,91.64,271.57,2.53
134,San Quintín,100,MX,1583046831,85,30.48,-115.95,287.54,2.61
135,Ponta do Sol,20,PT,1583046832,77,32.67,-17.1,289.15,1.5
136,Talnakh,99,RU,1583046832,85,69.49,88.4,261.15,15.0
137,Gonzales,1,US,1583046832,93,30.24,-90.92,284.82,2.75
138,Tai’an,22,CN,1583046832,49,36.19,117.12,286.48,5.06
139,Airai,93,TL,1583046832,61,-8.93,125.41,301.07,1.52
140,Strathmore,90,CA,1583046833,79,51.05,-113.39,269.82,7.2
141,Norman Wells,5,CA,1583046833,74,65.28,-126.83,240.15,1.0
142,Ballitoville,25,ZA,1583046833,64,-29.54,31.21,296.48,5.7
143,Chimoio,79,MZ,1583046833,79,-19.12,33.48,292.89,5.5
144,Kōriyama,20,JP,1583046674,45,37.4,140.38,282.15,8.2
145,San Cristobal,73,VE,1583046834,94,7.77,-72.22,284.86,0.67
146,Naberera,100,TZ,1583046834,85,-4.2,36.93,294.26,1.33
147,Darhan,100,MN,1583046834,78,49.49,105.92,265.72,2.5
148,Jamestown,75,US,1583046834,85,42.1,-79.24,272.15,5.1
149,Brodokalmak,40,RU,1583046835,69,55.57,62.08,275.15,3.0
150,Mataram,75,ID,1583046835,94,-8.58,116.12,300.15,3.1
151,Faanui,100,PF,1583046835,88,-16.48,-151.75,299.72,16.21
152,Saint-Philippe,27,RE,1583046835,70,-21.36,55.77,303.15,3.1
153,Portland,40,US,1583046721,80,45.52,-122.68,276.15,1.5
154,Thompson,90,CA,1583046836,92,55.74,-97.86,266.15,2.6
155,Hjelset,100,NO,1583046836,69,62.78,7.48,274.82,11.3
156,Qaanaaq,0,GL,1583046837,66,77.48,-69.36,241.19,2.38
157,Mamakan,100,RU,1583046838,86,57.82,114.0,263.59,1.03
158,Peniche,75,PT,1583046838,93,39.36,-9.38,288.15,5.1
159,Batemans Bay,50,AU,1583046838,85,-35.72,150.18,303.15,4.47
160,Slave Lake,90,CA,1583046838,92,55.28,-114.77,264.15,6.2
161,Kavieng,76,PG,1583046839,67,-2.57,150.8,302.84,0.56
162,Wewak,99,PG,1583046839,87,-3.55,143.63,298.92,4.99
163,Obo,0,CF,1583046839,16,5.4,26.49,300.8,4.54
164,Constitución,0,CL,1583046839,90,-35.33,-72.42,285.44,0.9
165,Bambous Virieux,75,MU,1583046839,83,-20.34,57.76,302.15,3.6
166,Dvurechensk,20,RU,1583046840,69,56.6,61.1,274.15,6.0
167,Fortuna,90,US,1583046840,87,40.6,-124.16,280.37,1.68
168,Pueblo Bello,70,CO,1583046840,96,8.2,-76.53,295.05,0.91
169,Birjand,0,IR,1583046840,21,32.87,59.22,290.15,1.88
170,Mossamedes,6,AO,1583046841,76,-15.2,12.15,296.14,1.14
171,Avera,1,US,1583046841,100,33.19,-82.53,277.04,1.5
172,Iqaluit,20,CA,1583046841,68,63.75,-68.51,244.26,4.1
173,Susanville,90,US,1583046841,68,40.42,-120.65,273.15,0.9
174,Humberto de Campos,100,BR,1583046665,91,-2.6,-43.46,297.86,0.34
175,Hamilton,1,US,1583046842,85,39.18,-84.53,270.93,2.09
176,Rønne,20,DK,1583046842,86,55.1,14.71,278.15,7.7
177,Ilhabela,100,BR,1583046843,91,-23.78,-45.36,296.57,9.32
178,Sechura,70,PE,1583046843,87,-5.56,-80.82,297.42,4.43
179,Cherskiy,2,RU,1583046843,94,68.75,161.3,252.8,2.63
180,Três Pontas,41,BR,1583046843,97,-21.37,-45.51,290.58,1.72
181,Lüderitz,49,NA,1583046843,93,-26.65,15.16,292.15,5.1
182,Geraldton,0,AU,1583046844,24,-28.77,114.6,307.15,9.8
183,Banda Aceh,50,ID,1583046767,50,5.56,95.32,306.13,4.26
184,Souillac,75,MU,1583046844,83,-20.52,57.52,302.15,3.6
185,Rome,90,US,1583046066,78,43.21,-75.46,266.48,1.5
186,Kabanjahe,40,ID,1583046845,66,3.1,98.49,304.15,4.1
187,Santa Cruz de La Palma,20,ES,1583046845,82,28.68,-17.76,290.15,4.6
188,Marsá Maţrūḩ,40,EG,1583046845,71,31.35,27.25,284.15,2.6
189,Porto Walter,85,BR,1583046666,97,-8.27,-72.74,295.56,0.69
190,Jaru,100,BR,1583046846,99,-10.44,-62.47,295.02,0.8
191,Carballo,20,ES,1583046846,76,43.21,-8.69,286.48,5.7
192,Saskylakh,77,RU,1583046847,90,71.92,114.08,256.73,6.0
193,Sola,75,VU,1583046847,89,-13.88,167.55,302.15,3.48
194,Praia da Vitória,40,PT,1583046847,87,38.73,-27.07,288.15,12.26
195,Laas,90,IT,1583046847,100,46.62,10.7,277.15,2.07
196,Diapaga,13,BF,1583046848,14,12.07,1.79,296.4,2.36
197,Mehamn,100,NO,1583046848,81,71.04,27.85,267.5,4.11
198,Caucaia,40,BR,1583046848,83,-3.74,-38.65,299.15,2.1
199,Quatre Cocos,75,MU,1583046848,83,-20.21,57.76,302.15,3.6
200,Haines Junction,100,CA,1583046849,97,60.75,-137.51,261.18,5.45
201,Bairiki Village,75,KI,1583046849,88,1.33,172.98,300.15,4.1
202,Krasne,100,UA,1583046849,60,49.91,24.61,277.15,3.0
203,Korla,4,CN,1583046849,46,41.76,86.15,274.69,1.51
204,Atuona,31,PF,1583046850,77,-9.8,-139.03,301.11,7.68
205,Mormugao,45,IN,1583046850,27,15.4,73.8,310.36,2.61
206,Vallenar,0,CL,1583046850,89,-28.57,-70.76,287.07,0.49
207,Tra Vinh,45,VN,1583046605,47,9.93,106.35,305.93,5.24
208,Port Keats,100,AU,1583046851,62,-14.25,129.55,305.23,4.62
209,Toyooka,75,JP,1583046851,66,35.53,134.83,284.15,5.1
210,Boyabat,40,TR,1583046851,93,41.47,34.77,278.15,1.0
211,Villanueva,90,HN,1583046831,100,15.32,-88.0,291.15,1.5
212,Pangnirtung,50,CA,1583046852,90,66.15,-65.71,244.1,1.23
213,Yar-Sale,100,RU,1583046852,88,66.83,70.83,271.22,10.99
214,Broome,90,US,1583046852,85,42.25,-75.83,267.59,7.7
215,Nanortalik,0,GL,1583046852,64,60.14,-45.24,263.01,7.16
216,Tiksi,43,RU,1583046853,84,71.69,128.87,255.21,4.09
217,Atbasar,100,KZ,1583046853,81,51.8,68.33,270.09,4.39
218,Kloulklubed,75,PW,1583046853,70,7.04,134.26,302.15,5.1
219,Wasilla,90,US,1583046853,62,61.58,-149.44,267.15,8.7
220,Maumelle,90,US,1583046640,58,34.87,-92.4,285.37,2.1
221,Hofn,100,IS,1583046854,67,64.25,-15.21,277.55,20.36
222,Ukiah,1,US,1583046854,75,39.15,-123.21,281.48,2.05
223,Japura,99,ID,1583046854,42,-0.32,102.35,307.34,1.74
224,Longyearbyen,20,SJ,1583046854,59,78.22,15.64,256.15,4.1
225,Savannah Bight,100,HN,1583046855,76,16.45,-85.85,297.35,10.8
226,Upernavik,80,GL,1583046855,88,72.79,-56.15,241.01,1.4
227,Ancud,0,CL,1583046855,77,-41.87,-73.82,288.15,5.1
228,Redlands,90,US,1583046656,66,34.06,-117.18,287.59,1.5
229,Ternate,74,ID,1583046856,86,0.8,127.4,300.9,1.74
230,Port Macquarie,13,AU,1583046856,61,-31.43,152.92,302.04,7.7
231,Ilo,82,PE,1583046856,87,-17.64,-71.34,295.7,0.67
232,Charagua,9,BO,1583046665,42,-19.8,-63.22,295.87,2.76
233,Rāwah,0,IQ,1583046857,49,34.48,41.91,285.88,7.18
234,Tilichiki,0,RU,1583046857,86,60.47,166.1,254.1,3.68
235,Rocha,26,UY,1583046857,96,-34.48,-54.33,290.29,2.8
236,Naze,75,JP,1583046857,93,28.37,129.48,293.15,4.6
237,Yellowknife,20,CA,1583046848,74,62.46,-114.35,245.37,2.6
238,Caicó,55,BR,1583046769,82,-6.46,-37.1,298.31,2.38
239,Tasiilaq,100,GL,1583046858,92,65.61,-37.64,264.15,0.5
240,Xingyi,0,CN,1583046858,26,24.19,102.82,297.08,5.46
241,Grindavik,100,IS,1583046858,64,63.84,-22.43,275.15,9.8
242,Nāttarasankottai,100,IN,1583046859,41,9.87,78.57,303.95,4.22
243,São João da Barra,100,BR,1583046673,93,-21.64,-41.05,296.51,0.68
244,Kiunga,100,PG,1583046859,64,-6.12,141.29,303.19,0.83
245,Manoel Urbano,97,BR,1583046859,97,-8.84,-69.26,294.8,0.73
246,Wakkanai,75,JP,1583046859,73,45.41,141.67,268.15,8.2
247,Kodinsk,92,RU,1583046860,87,58.69,99.18,264.89,2.63
248,Yulara,100,AU,1583046860,28,-25.24,130.99,308.15,7.2
249,Tadine,94,NC,1583046860,82,-21.55,167.88,300.17,4.24
250,Springbok,2,ZA,1583046860,41,-29.66,17.89,297.15,2.6
251,Bosconia,2,CO,1583046860,61,9.97,-73.88,297.97,1.49
252,Porangatu,100,BR,1583046861,97,-13.44,-49.15,295.12,1.44
253,Norsup,75,VU,1583046861,83,-16.07,167.38,302.15,2.1
254,Khatanga,89,RU,1583046861,93,71.97,102.5,256.64,5.54
255,Chui,0,UY,1583046861,88,-33.7,-53.46,291.78,1.97
256,East London,0,ZA,1583046745,64,-33.02,27.91,296.15,4.6
257,Cayenne,20,GF,1583046862,83,4.93,-52.33,298.15,2.6
258,Manado,75,ID,1583046862,100,1.49,124.85,298.15,2.1
259,Vao,78,NC,1583046862,84,-22.67,167.48,300.0,6.06
260,Erie,90,US,1583046862,73,42.77,-78.67,268.71,3.6
261,Arraial do Cabo,95,BR,1583046863,92,-22.97,-42.03,296.59,5.46
262,Vredendal,54,ZA,1583046863,53,-31.67,18.5,296.98,2.08
263,Mitú,57,CO,1583046794,96,1.2,-70.17,295.12,0.83
264,Penzance,95,GB,1583046863,75,50.12,-5.54,280.37,7.7
265,Umm Kaddadah,22,SD,1583046864,14,13.6,26.69,293.96,9.93
266,Matagami,1,CA,1583046864,82,49.75,-77.63,246.15,0.97
267,Severo-Kuril'sk,96,RU,1583046864,89,50.68,156.12,268.76,0.72
268,Dunedin,15,NZ,1583046782,77,-45.87,170.5,288.71,8.03
269,Laguna de Duero,90,ES,1583046864,93,41.58,-4.72,280.93,8.7
270,Namatanai,79,PG,1583046865,69,-3.67,152.43,303.0,2.94
271,Roald,75,NO,1583046865,74,62.58,6.13,275.15,8.7
272,Amurzet,97,RU,1583046865,85,47.7,131.1,267.28,1.86
273,Dikson,100,RU,1583046865,78,73.51,80.55,262.28,13.08
274,Blyth,75,GB,1583046866,93,55.13,-1.51,278.15,9.3
275,Vestmanna,100,FO,1583046866,80,62.16,-7.17,277.15,11.8
276,North Bend,1,US,1583046866,100,43.41,-124.22,277.15,0.89
277,Ketchikan,90,US,1583046866,90,55.34,-131.65,277.15,0.56
278,Serenje,97,ZM,1583046867,88,-13.23,30.24,291.27,3.04
279,Balkanabat,31,TM,1583046867,45,39.51,54.37,285.64,1.47
280,Kruisfontein,0,ZA,1583046867,74,-34.0,24.73,291.48,2.91
281,Cidreira,0,BR,1583046665,75,-30.18,-50.21,295.87,7.07
282,Ust-Maya,0,RU,1583046868,89,60.42,134.53,261.14,1.38
283,Lerwick,84,GB,1583046868,75,60.15,-1.15,279.15,14.4
284,Henties Bay,100,NA,1583046868,82,-22.12,14.28,292.52,1.2
285,Buchanan,55,LR,1583046868,97,5.88,-10.05,297.48,1.11
286,Sarangani,57,PH,1583046869,77,5.4,125.46,300.98,11.84
287,Alvorada,100,BR,1583046869,95,-12.48,-49.12,296.22,0.78
288,Chokwé,40,MZ,1583046869,72,-24.53,32.98,295.04,4.07
289,Kalabo,100,ZM,1583046869,93,-14.97,22.68,293.01,1.39
290,Sun Prairie,1,US,1583046870,79,43.18,-89.21,272.59,2.1
291,Maceió,23,BR,1583046829,88,-9.67,-35.74,298.15,1.0
292,Sept-Îles,40,CA,1583046748,84,50.2,-66.38,257.15,2.1
293,Hohhot,20,CN,1583046870,16,40.81,111.65,276.15,6.0
294,Kirakira,52,SB,1583046870,75,-10.45,161.92,301.54,2.09
295,Tsimmerbude,40,RU,1583046871,93,54.67,20.13,278.15,4.0
296,Kidal,0,ML,1583046871,11,18.44,1.41,293.23,4.84
297,Ucluelet,0,CA,1583046663,92,48.93,-125.55,274.26,1.85
298,São José da Coroa Grande,41,BR,1583046871,75,-8.9,-35.15,300.8,4.29
299,Saint-Paul,20,RE,1583046872,74,-21.01,55.27,303.15,4.1
300,Manavālakurichi,20,IN,1583046872,55,8.13,77.3,304.15,3.1
301,Okhotsk,12,RU,1583046872,80,59.38,143.3,264.65,3.13
302,Flinders,59,AU,1583046872,58,-34.58,150.86,303.71,6.2
303,Lodja,88,CD,1583046873,92,-3.48,23.43,296.45,0.59
304,Sitka,90,US,1583046873,80,57.05,-135.33,275.15,4.1
305,Mpika,100,ZM,1583046873,98,-11.83,31.45,290.06,3.67
306,Nelson,80,NZ,1583046873,56,-41.28,173.28,293.71,1.93
307,Srednekolymsk,0,RU,1583046874,82,67.45,153.68,259.93,2.25
308,Pochutla,0,MX,1583046874,79,15.74,-96.47,300.49,6.96
309,Tarko-Sale,100,RU,1583046874,82,64.92,77.78,273.15,1.79
310,Grand Gaube,75,MU,1583046874,83,-20.01,57.66,302.15,3.6
311,Buckeye,1,US,1583046658,54,33.37,-112.58,289.82,2.1
312,Cairns,27,AU,1583046875,55,-16.92,145.77,306.15,4.6
313,Bolshoy Lug,40,RU,1583046875,67,52.08,104.09,268.15,9.0
314,Xiaolingwei,90,CN,1583046875,93,32.03,118.85,282.59,4.0
315,Berlevåg,100,NO,1583046875,69,70.86,29.09,271.51,6.19
316,Marolambo,37,MG,1583046876,70,-20.05,48.12,296.83,1.35
317,Kyzyl-Suu,0,KG,1583046876,82,42.34,78.0,275.18,2.09
318,Menongue,83,AO,1583046876,81,-14.66,17.69,288.39,1.82
319,Erenhot,0,CN,1583046876,60,43.65,111.98,270.12,4.79
320,Río Gallegos,100,AR,1583046877,71,-51.62,-69.22,286.15,3.6
321,Progreso,5,MX,1583046877,63,21.28,-89.67,291.15,5.1
322,Marsh Harbour,1,BS,1583046877,58,26.54,-77.06,291.29,8.92
323,Nelson Bay,7,AU,1583046877,58,-32.72,152.15,302.15,6.2
324,Grand-Santi,7,GF,1583046878,94,4.25,-54.38,293.86,1.03
325,Faya,5,SA,1583046878,42,18.39,42.45,291.15,5.1
326,Sorong,67,ID,1583046878,93,-0.88,131.25,301.44,2.0
327,Poceirão,75,PT,1583046878,93,38.83,-8.79,288.71,5.1
328,Clovis,90,US,1583046684,54,36.83,-119.7,287.15,8.7
329,Abu Dhabi,0,AE,1583046673,68,24.47,54.37,296.48,2.6
330,Truro,86,GB,1583046879,75,50.27,-5.05,279.15,7.7
331,Gura Caliţei,75,RO,1583046879,68,45.58,27.02,273.15,2.6
332,Karasjok,100,NO,1583046880,85,69.47,25.51,261.15,4.1
333,Feijó,54,BR,1583046880,94,-8.16,-70.35,295.96,0.42
334,Bathsheba,40,BB,1583046880,73,13.22,-59.52,298.15,6.2
335,Kut Chap,40,TH,1583046880,32,17.43,102.57,308.15,2.64
336,Flin Flon,100,CA,1583046880,93,54.77,-101.86,267.78,4.73
337,Katsuura,75,JP,1583046881,51,35.13,140.3,289.82,3.1
338,Marzuq,37,YE,1583046881,30,14.4,46.47,299.45,1.67
339,Zavallya,98,UA,1583046881,69,48.21,30.02,276.66,7.14
340,Baní,58,DO,1583046881,84,18.28,-70.33,297.04,1.79
341,Falkensee,39,DE,1583046882,75,52.57,13.08,279.82,5.1
342,Gōtsuchō,75,JP,1583046882,66,35.0,132.22,286.15,3.6
343,Torbay,5,CA,1583046882,72,47.67,-52.73,265.93,3.1
344,Mount Vernon,1,US,1583046882,53,40.91,-73.84,270.37,5.44
345,Methóni,55,GR,1583046883,75,36.82,21.7,285.37,2.6
346,Terenos,0,BR,1583046883,73,-20.44,-54.86,294.15,2.6
347,Kasongo-Lunda,100,CD,1583046883,96,-6.47,16.82,293.1,0.53
348,Mahébourg,75,MU,1583046883,83,-20.41,57.7,302.15,3.6
349,Pringsewu,97,ID,1583046884,87,-5.36,104.97,301.07,1.15
350,Olafsvik,100,IS,1583046884,67,64.89,-23.71,273.64,9.2
351,Ilulissat,5,GL,1583046884,51,69.22,-51.1,246.15,1.0
352,Saquarema,90,BR,1583046884,94,-22.92,-42.51,296.15,7.7
353,Shahrud,0,IR,1583046884,53,36.42,54.98,281.3,1.47
354,Touros,75,BR,1583046885,94,-5.2,-35.46,298.15,1.5
355,Xinpu,100,CN,1583046885,62,34.6,119.16,283.19,4.07
356,Belozërskoye,100,RU,1583046885,95,55.82,65.58,268.4,3.57
357,Padilla,75,CO,1583046885,83,3.22,-76.31,295.15,1.0
358,Lhokseumawe,99,ID,1583046886,77,5.18,97.15,299.21,1.35
359,Valday,99,RU,1583046886,87,57.97,33.25,271.73,4.76
360,Petropavlovka,100,RU,1583046886,87,50.61,105.32,266.03,1.46
361,Kota Bharu,20,MY,1583046886,58,6.13,102.24,304.15,4.6
362,Chastyye,85,RU,1583046887,85,57.29,54.97,270.08,5.94
363,Evensk,0,RU,1583046887,70,61.95,159.23,259.43,3.81
364,Moen,100,NO,1583046887,84,69.13,18.61,264.15,5.7
365,Kulhudhuffushi,50,MV,1583046887,73,6.62,73.07,301.25,4.11
366,Bikaner,0,IN,1583046887,36,28.02,73.3,298.49,3.14
367,Jalu,0,LY,1583046888,72,29.03,21.55,286.23,1.07
368,Daru,100,PG,1583046888,86,-9.08,143.21,302.07,1.69
369,Miyako,64,JP,1583046888,57,39.64,141.95,280.41,3.23
370,Zăvoaia,75,RO,1583046888,71,44.95,27.48,273.15,2.6
371,Ekuvukeni,20,ZA,1583046889,74,-28.47,30.16,289.87,0.71
372,Aklavik,5,CA,1583046889,75,68.22,-135.01,245.15,3.1
373,Bandar,96,ID,1583046889,54,2.05,99.75,305.57,1.23
374,Nokaneng,80,BW,1583046889,72,-19.67,22.27,293.84,6.39
375,Wuwei,100,CN,1583046889,35,37.93,102.64,276.92,3.6
376,Kendari,100,ID,1583046890,70,-3.94,122.5,304.2,2.79
377,Hervey Bay,3,AU,1583046890,55,-25.3,152.85,303.15,6.7
378,Mocuba,79,MZ,1583046890,95,-16.84,36.99,297.06,3.0
379,Praia,82,CV,1583046890,56,14.92,-23.51,296.15,7.2
380,Vila Velha,90,BR,1583046890,100,-20.33,-40.29,297.15,1.5
381,Melfi,40,IT,1583046892,87,41.0,15.65,279.15,2.6
382,Bethel,1,US,1583046892,57,41.37,-73.41,269.26,7.7
383,Halifax,90,CA,1583046722,100,44.65,-63.57,272.59,2.6
384,Leningradskiy,99,RU,1583046892,86,69.38,178.42,255.52,8.73
385,Umluj,26,SA,1583046893,46,25.02,37.27,292.26,4.19
386,Port Hedland,38,AU,1583046893,63,-20.32,118.57,308.15,7.2
387,Zaria,94,NG,1583046893,16,11.11,7.72,295.51,3.06
388,Assiut,0,EG,1583046893,76,27.18,31.18,284.15,4.1
389,College,75,US,1583046894,76,64.86,-147.8,257.59,2.02
390,Quesnel,90,CA,1583046894,92,53.0,-122.5,270.15,0.61
391,Gwadar,0,PK,1583046894,57,25.12,62.33,296.03,3.8
392,Oktyabr'skiy,100,RU,1583046894,91,54.48,53.47,269.67,3.41
393,Amapá,70,BR,1583046895,99,1.0,-52.0,294.85,0.98
394,Ahipara,100,NZ,1583046895,82,-35.17,173.17,297.04,2.75
395,Balad,0,IQ,1583046895,44,34.02,44.15,290.53,4.32
396,Teodoro Sampaio,36,BR,1583046896,95,-22.53,-52.17,291.68,2.82
397,Gamba,100,GA,1583046896,91,-2.65,10.0,297.47,3.55
398,Peterhead,99,GB,1583046896,91,57.51,-1.8,276.15,4.6
399,Broken Hill,24,AU,1583046897,9,-31.95,141.43,308.15,4.6
400,Simití,9,CO,1583046897,74,7.96,-73.94,296.96,1.42
401,Teacapan,0,MX,1583046897,71,22.55,-105.75,292.48,0.95
402,Cockburn Town,84,TC,1583046897,78,21.46,-71.14,296.48,10.37
403,Salalah,20,OM,1583046897,61,17.02,54.09,299.15,1.0
404,Lorengau,99,PG,1583046898,78,-2.02,147.27,301.45,3.17
405,Fevik,75,NO,1583046898,93,58.38,8.68,278.15,4.1
406,Alice Springs,100,AU,1583046898,13,-23.7,133.88,310.15,4.1
407,Podosinovets,100,RU,1583046898,87,60.28,47.07,266.29,5.75
408,Huangmei,62,CN,1583046899,61,30.19,116.03,288.41,3.46
409,Xylaganí,20,GR,1583046899,86,40.98,25.42,282.04,1.61
410,Camacha,40,PT,1583046899,93,33.08,-16.33,290.15,3.1
411,Rabat,40,MA,1583046899,87,33.99,-6.84,287.15,2.6
412,Alta Floresta,100,BR,1583046900,98,-9.88,-56.09,295.61,0.75
413,Svetlaya,0,RU,1583046900,72,46.54,138.33,268.72,3.76
414,Los Llanos de Aridane,20,ES,1583046900,82,28.66,-17.92,290.15,4.6
415,Esim,14,GH,1583046900,96,4.87,-2.24,298.65,1.72
416,Mulegé,100,MX,1583046901,36,26.88,-111.98,293.29,1.12
417,Okha,100,RU,1583046902,94,53.57,142.95,262.03,3.9
418,Iquique,38,CL,1583046902,73,-20.22,-70.14,294.15,4.6
419,São Mateus do Sul,34,BR,1583046902,97,-25.87,-50.38,286.63,1.29
420,Paamiut,0,GL,1583046902,54,61.99,-49.67,253.68,3.17
421,Zyryanka,0,RU,1583046903,83,65.75,150.85,262.79,5.11
422,Ardakān,0,IR,1583046903,26,32.31,54.02,289.15,2.1
423,Anadyr,0,RU,1583046903,76,64.75,177.48,250.15,3.0
424,Zhangjiakou,5,CN,1583046783,25,40.81,114.88,271.31,10.79
425,Kattivākkam,40,IN,1583046903,55,13.22,80.32,304.15,3.1
426,Mtambile,98,TZ,1583046904,77,-5.38,39.7,302.53,3.09
427,Micheweni,68,TZ,1583046904,73,-4.97,39.83,302.7,2.07
428,Aswān,17,EG,1583046904,44,24.09,32.91,288.15,3.1
429,Navahrudak,100,BY,1583046904,79,53.6,25.83,275.54,7.84
430,Fairbanks,75,US,1583046638,76,64.84,-147.72,257.59,1.95
431,Khani,90,GE,1583046905,93,41.96,42.96,281.15,4.6
432,Oregon,20,US,1583046905,85,44.0,-120.5,272.04,3.41
433,Dudinka,100,RU,1583046905,85,69.41,86.18,261.15,15.0
434,Arrondissement de Perpignan,90,FR,1583046905,62,42.75,2.75,284.82,0.57
435,Sneek,75,NL,1583046676,80,53.03,5.66,279.26,8.2
436,La Ronge,90,CA,1583046906,85,55.1,-105.28,266.15,5.7
437,Iberia,22,US,1583046906,87,29.95,-91.75,286.48,2.6
438,Shenjiamen,100,CN,1583046907,92,29.96,122.3,283.96,9.31
439,Kiryat Gat,20,IL,1583046723,55,31.61,34.76,289.15,6.7
440,Buritizeiro,99,BR,1583046907,96,-17.35,-44.96,292.39,0.56
441,Porkhov,90,RU,1583046907,95,57.77,29.56,274.15,4.0
442,Creel,23,MX,1583046907,48,27.75,-107.63,278.79,2.43
443,Pacific Grove,1,US,1583046897,66,36.62,-121.92,284.26,5.1
444,Slavsk,100,RU,1583046908,80,55.04,21.68,278.98,4.79
445,Monte Alegre de Sergipe,9,BR,1583046908,81,-10.03,-37.56,297.04,1.65
446,Chul'man,100,RU,1583046908,86,56.85,124.91,260.31,0.53
447,Magadan,0,RU,1583046909,77,59.57,150.8,265.05,0.88
448,Manacor,20,ES,1583046724,67,39.57,3.21,290.37,6.2
449,Safaga,0,EG,1583046909,59,26.73,33.94,289.15,4.1
450,Comodoro Rivadavia,42,AR,1583046901,56,-45.87,-67.5,294.15,1.0
451,Tayu,76,ID,1583046910,66,-6.54,111.05,303.77,7.38
452,Nemuro,75,JP,1583046910,85,43.32,145.57,269.15,2.6
453,Kaeo,78,NZ,1583046910,82,-35.1,173.78,297.04,4.04
454,Catuday,0,PH,1583046910,67,16.29,119.81,300.18,4.33
455,Hurghada,0,EG,1583046812,59,27.26,33.81,289.15,4.1
456,Cartagena,0,CO,1583046911,83,10.4,-75.51,299.15,4.6
457,Compiègne,75,FR,1583046911,75,49.42,2.83,279.15,5.7
458,Arroio Grande,0,BR,1583046911,90,-32.24,-53.09,288.92,1.47
459,Severo-Yeniseyskiy,53,RU,1583046907,84,60.37,93.04,265.0,0.87
460,Moba,81,CN,1583046912,24,33.23,105.02,284.01,2.06
461,Sørland,69,NO,1583046912,62,67.67,12.69,272.8,11.68
462,Dhidhdhoo,69,MV,1583046912,75,6.88,73.1,301.3,4.41
463,Kiama,59,AU,1583046912,58,-34.68,150.87,303.71,6.2
464,Kawalu,94,ID,1583046913,79,-7.38,108.21,300.8,1.68
465,Berezovyy,91,RU,1583046913,68,51.67,135.7,266.95,1.86
466,Vila Franca do Campo,75,PT,1583046913,82,37.72,-25.43,290.15,9.3
467,Rawson,0,AR,1583046913,64,-43.3,-65.1,292.7,7.59
468,Padang,100,ID,1583046914,62,-0.95,100.35,302.32,0.5
469,Ulkan,100,RU,1583046914,87,57.24,107.32,266.0,2.12
470,Brainerd,40,US,1583046914,86,46.36,-94.2,272.15,3.6
471,Raja,41,SS,1583046914,15,8.46,25.68,295.93,2.36
472,Río Bueno,1,CL,1583046915,97,-40.32,-72.97,285.03,1.21
473,Viedma,0,AR,1583046915,67,-40.81,-63.0,292.91,6.23
474,Stokmarknes,63,NO,1583046915,75,68.56,14.91,269.26,1.34
475,Adrar,0,MR,1583046915,15,20.5,-10.07,291.88,4.28
476,Shimoda,75,JP,1583046915,62,34.67,138.95,288.71,3.6
477,Pangody,100,RU,1583046916,93,65.85,74.49,271.44,11.28
478,Clyde River,1,CA,1583046916,74,70.47,-68.59,240.15,7.2
479,Nowy Dwór Gdański,20,PL,1583046916,86,54.21,19.12,278.15,3.6
480,Suzun,100,RU,1583046917,99,53.78,82.31,272.41,2.51
481,Vaitape,100,PF,1583046917,88,-16.52,-151.75,299.72,16.21
482,Tiarei,75,PF,1583046917,94,-17.53,-149.33,298.15,3.6
483,Shingū,75,JP,1583046917,76,33.73,135.98,287.15,4.1
484,Otukpo,69,NG,1583046917,93,7.19,8.13,297.72,2.01
485,Moose Factory,1,CA,1583046635,75,51.26,-80.61,245.15,1.0
486,Grenå,50,DK,1583046905,86,56.42,10.88,278.15,5.1
487,Ugoofaaru,14,MV,1583046919,74,5.67,73.0,301.1,4.44
488,Sabha,0,LY,1583046919,35,27.04,14.43,286.85,4.58
489,Pendleton,40,US,1583046776,64,45.67,-118.79,279.26,4.1
490,Turaif,75,SA,1583046920,100,31.67,38.66,281.15,8.2
491,Gwanda,82,ZW,1583046920,76,-20.93,29.0,289.99,6.1
492,Calvinia,22,ZA,1583046920,47,-31.47,19.78,299.15,5.7
493,Xai-Xai,10,MZ,1583046921,72,-25.05,33.64,296.66,3.47
494,Lagos,75,NG,1583046921,89,6.58,3.75,302.15,1.5
495,Dubăsari,100,MD,1583046921,75,47.26,29.16,280.37,8.2
496,Mareeba,86,AU,1583046921,55,-17.0,145.43,306.15,4.6
497,Berdigestyakh,22,RU,1583046921,87,62.1,126.7,259.65,1.42
498,Aykhal,78,RU,1583046684,77,66.0,111.5,257.15,3.0
499,Kyaikto,0,MM,1583046922,22,17.3,97.02,308.98,3.07
500,Ubinskoye,100,RU,1583046922,88,55.31,79.68,272.26,4.97
501,Nuuk,16,GL,1583046823,65,64.18,-51.72,257.15,5.1
502,Aligoodarz,0,IR,1583046923,37,33.4,49.69,280.24,0.7
503,Manuk Mangkaw,100,PH,1583046923,73,4.8,119.85,302.09,2.14
504,Acaraú,20,BR,1583046923,100,-2.89,-40.12,298.15,0.81
505,Imbituba,0,BR,1583046923,100,-28.24,-48.67,292.15,1.5
506,North Platte,1,US,1583046925,59,41.12,-100.77,274.15,3.69
507,Talaya,99,RU,1583046925,99,61.38,152.75,254.18,0.22
508,Rājāpur,3,IN,1583046925,30,25.38,81.15,302.06,2.32
509,San Andrés Xecul,40,GT,1583046926,86,14.9,-91.48,282.04,0.45
510,Pontalina,100,BR,1583046926,98,-17.52,-49.45,293.02,1.56
511,Nyimba,76,ZM,1583046926,82,-14.56,30.81,294.31,4.26
512,Solnechnyy,65,RU,1583046926,90,50.72,136.63,266.55,1.77
513,Port Blair,2,IN,1583046927,74,11.67,92.75,300.39,4.99
514,Margate,66,GB,1583046927,65,51.38,1.39,279.15,7.7
515,Hobyo,86,SO,1583046927,58,5.35,48.53,300.5,7.28
516,Logroño,37,ES,1583046640,75,42.47,-2.45,282.59,2.6
517,Zhigansk,82,RU,1583046928,96,66.77,123.37,252.82,2.54
518,Pastavy,100,BY,1583046928,81,55.12,26.83,274.55,7.3
519,Itarema,20,BR,1583046928,100,-2.92,-39.92,298.15,0.81
520,Wukari,8,NG,1583046928,75,7.85,9.78,296.17,2.21
521,Saint Anthony,1,US,1583046929,80,45.02,-93.22,277.59,5.7
522,Altay,0,CN,1583046929,58,47.87,88.12,270.31,0.78
523,Kunjah,5,PK,1583046929,52,32.53,73.97,294.15,1.48
524,Nizwá,0,OM,1583046929,39,22.93,57.53,293.09,2.29
525,Byron Bay,90,AU,1583046496,65,-28.65,153.62,303.15,4.1
526,Monsenhor Gil,75,BR,1583046930,94,-5.56,-42.61,298.15,1.5
527,Awjilah,0,LY,1583046930,72,29.11,21.29,286.23,1.07
528,City of San Pedro,20,PH,1583046930,52,14.35,121.02,305.37,4.1
529,Prieska,7,ZA,1583046931,54,-29.66,22.75,296.6,4.09
530,Tuatapere,76,NZ,1583046931,58,-46.13,167.68,292.59,1.34
531,Takoradze,14,GH,1583046931,96,4.88,-1.76,298.65,1.72
532,Dingle,69,PH,1583046931,60,11.0,122.67,302.69,5.11
533,Jamame,89,SO,1583046932,84,0.07,42.75,300.17,5.01
534,Biak,83,ID,1583046932,67,-0.91,122.88,304.96,4.08
535,São Filipe,21,CV,1583046932,62,14.9,-24.5,295.03,10.13
536,Vardø,80,NO,1583046932,93,70.37,31.11,269.85,5.62
537,Elizabeth City,1,US,1583046634,54,36.29,-76.25,276.15,4.76
538,Aden,1,YE,1583046933,58,12.78,45.04,299.81,3.25
539,Osa,96,RU,1583046933,81,57.28,55.46,271.03,5.43
540,Ostrovnoy,100,RU,1583046933,90,68.05,39.51,270.14,6.64
